name,id,latitude,longitude
7-ELEVEN-SHELL,1,34.22762343,-118.2460209
QUIK-N-EZ,2,33.94494076,-118.2125865
7-ELEVEN STORE 39832A,3,34.103487,-118.338412
7-ELEVEN STORE 39833A,4,34.06896067,-118.29621
7-ELEVEN STORE-39362A,5,34.18522236,-118.3485616
7-ELEVEN STORES #25887,6,34.04671222,-118.4482091
7-ELEVEN STREET# 18949,7,34.179246,-118.4394523
7-ELEVEN# 19197D,8,34.04450889,-118.1615284
7-ELEVEN#24596-A-2133,9,34.25741188,-118.6057518
7-ELEVEN #32696,10,34.25805235,-118.5235207
7-ELEVEN-#13832-E,11,34.09137016,-118.1196641
7-ELVEN #24131 B,12,34.09093497,-118.3553465
R E I,13,34.14270455,-118.0307596
Q- BARGAIN,14,34.03839741,-118.1451289
RANCHO ZAPOTILLO ( MEAT MARK,15,34.05010324,-118.1967288
QUICKIE MINI MARKET,16,34.19388347,-118.4753991
76 STATION,17,33.97310614,-118.0747295
76 TORRANCE / 7-ELEVEN 39667A,18,33.83605392,-118.3291043
PUNJAB GROCERY STORE,19,34.10121648,-118.1133089
RACHEL & BEN'S ARCO,20,34.11341671,-118.0038504
QUAKER STATE LIQUOR,21,34.08357423,-118.3417672
RAAD MART,22,33.98869126,-118.2827224
RANCHO SINALOA,23,34.07645669,-118.2951049
RANCHO LATING,24,33.94420374,-118.2078868
PRESSED JUICERY,25,33.88508481,-118.4092877
RAMIREZ MEAT MARKET,26,34.08551152,-117.9671896
PRIME LIQUOR MARKET,27,34.17364748,-118.3166079
QUINTINS MOBIL,28,34.03745856,-117.9495071
QUIX TOP MINEMART,29,34.00682783,-117.9091206
PRESSED JUICERY,30,34.04851125,-118.4907594
RAFFI'S CHEVRON,31,34.03305143,-118.3346166
RAJO AFRICAN PRODUCT MARKET,32,33.99339815,-118.330446
R&L LIQUOR,33,33.91682123,-118.3088201
QUANG HOA SUPERMARKET - MEAT MARKET,34,34.06244048,-118.1173715
PUMAS MEAT MARKET,35,33.9516809,-118.278432
QUICK STOP MARKET,36,33.87299667,-118.369888
QUARTZ HILL 76,37,34.65264394,-118.2183616
RAMIREZ LIQUOR,38,33.96873268,-118.0961156
QUAN SERVICE CENTER INC.,39,34.03357517,-118.152059
RABBI'S DAUGHTER BUTCHER SHOP,40,34.04198717,-118.4298961
R-RANCH MARKET,41,34.03225408,-118.355979
RALPH'S PARTY SUPPLY,42,34.02411416,-118.1396251
PRATUNUM MARKET / MEAT DEPARTMENT,43,34.22089539,-118.4142158
RAINBOW MARKET,44,34.49464712,-118.6238413
QUANG HOA SUPERMARKET - MAIN MARKET,45,34.06244048,-118.1173715
PUEBLO LIQUOR,46,34.02244737,-118.1678963
Q AND M MARKET,47,33.95395224,-118.258971
RAFI'S CHEVRON #1,48,33.82691285,-118.3686618
RANCHO VERDE MARKET,49,34.01641618,-118.1788274
PRONTO FUEL,50,34.05265094,-118.2038539
RANCHO PARK PHARMACY,51,34.04374974,-118.4218417
QUEEN'S MARKET,52,33.99686131,-118.447721
R.M. MARKET,53,33.93150049,-118.3001318
QQ BARGAIN,54,34.01371237,-117.9227936
RAFI'S CHEVRON #11,55,34.05911276,-118.1729152
PRIMAL SPORTS SUPPLEMENTS & NUTRITION,56,34.10890674,-117.8215883
Q CITY MARKET,57,34.07759798,-118.1420189
R.A.Y.O,58,34.0726139,-117.9785587
PREMIUM PETROLEUM PLUS,59,33.86588391,-118.3260727
WATER GARDEN LOBBY SHOP (SUNDRY),60,34.02918153,-118.4721641
R & R LIQUOR,61,33.94022932,-118.2463701
PRIME STOP,62,34.0451762,-117.846611
PRIME TIME NUTRITION,63,34.03616302,-117.9371875
RAMIREZ CHEVRON AUTO CARE,64,34.07514613,-118.0125568
QUICK STOP LIQUOR 1,65,34.18686401,-118.447048
PRINCE ALBERT LIQUOR & MARKE,66,34.00404432,-118.2549902
QUIK PICK MARKET,67,34.00846713,-118.4245241
RANCHO PARK LIQUOR,68,34.04474019,-118.4197492
RANCH MARKET,69,34.0099343,-117.9264007
R-F LIQUOR,70,33.9848176,-118.278262
QUALITY SEAFOOD MARKET,71,33.84044695,-118.3910559
99c ONLY STORES,72,34.08988717,-117.7389943
PRECIADO'S MINI MARKET,73,33.97951865,-118.2474969
R & R MANAGEMENT,74,34.09849274,-118.1350054
RAINBOW ACRES MARKET,75,33.97844644,-118.4388995
PRESSED JUICERY,76,34.184068,-118.6058517
R.E.V. GROUP,77,33.99819974,-118.0554338
PRIME TIME NUTRITION,78,34.70406249,-118.1461526
PRIME MARKET,79,34.18620577,-118.4314477
RAINBOW MARKET,80,34.05619469,-118.0359932
QIK MARKET,81,34.20856582,-118.3705254
RAHA DISCOUNT INC,82,33.98076921,-118.3301653
Q SNACK SHOP,83,34.04210081,-118.252756
PLAZA LIQUOR,84,33.83133183,-118.3055338
RAINBOW SEAFOOD #2,85,34.09071309,-117.9608108
RAMZI UNION SERVICE,86,34.10315058,-118.0993794
RAINBOW ACRES,87,33.99323654,-118.4415729
RAFI'S CHEVRON #2,88,34.17188961,-118.4571581
RANCHO LATINO MEAT SECTION,89,33.94420374,-118.2078868
QUICK STOP LIQUOR,90,34.24693437,-118.2780242
RAFI'S CHEVERON #8,91,34.05663658,-118.2018561
R&J INTERNATIONAL MARKET,92,34.07161108,-118.0808034
QUICK STOP LIQUOR,93,34.57991119,-117.9723309
R&S,94,34.186678,-118.433171
Q BARGAIN,95,34.18585271,-118.4490148
POMONA SMOKE AND OUTLET,96,34.06255489,-117.7488393
RALPHS COUNTRY STORE,97,34.1231741,-118.2150371
QIK MEAT MARKET,98,34.20856582,-118.3705254
Q BARGAIN,99,34.18159637,-118.3844941
QUIGLEY'S LIQUOR,100,33.90416093,-118.291972
PRIME TIME NUTRITION,101,34.08515283,-118.0758872
POMONA AGUA PURA,102,34.06325628,-117.720046
PRESSED JUICERY,103,34.04084988,-118.2536731
PRESSED JUICERY,104,34.1457481,-118.4173252
PTL SUNSHINE SERVICE,105,34.495781,-118.6254687
RALPH'S DRIVE IN LIQUOR,106,33.94522365,-118.3170828
PRODUCE GUATEMALA,107,34.28211812,-118.4031166
RANCHERS MARKET,108,34.61842255,-118.2889488
PRESSED JUICERY,109,34.0600356,-118.4198866
ABC NUTRITIONAL CARE,110,34.0862516,-118.1794065
QUANG TRAN,111,34.06256295,-118.0732062
ABE'S LIQUOR,112,33.3431241,-118.3264487
RETRO DAIRY MART,113,34.16503,-118.3545064
ROCKET OIL #2,114,33.78110681,-118.2447341
REGGIE'S LIQUOR,115,34.00300176,-118.2824971
ROSS DRESS FOR LESS,116,33.9524709,-118.1873174
ROSS DRESS FOR LESS #1727,117,34.0351296,-117.7570756
RED'S LIQUOR,118,33.94541348,-118.2740638
ROSS PRESS FOR LESS #590,119,34.10195466,-118.308187
RED TAG DISCOUNT,120,33.96029034,-118.3281317
RM SMOKE SHOP,121,34.58644895,-118.1431227
ROSCOE JR MARKET,122,34.22008081,-118.5894211
ACCENT ON HEALTH,123,34.25744267,-118.5385502
ACCESS HOLLYWOOD,124,33.94287073,-118.4031604
RESIDENCE INN BY MARRIOTT,125,34.17793145,-118.3078369
ACE HI LIQUOR,126,33.92998662,-118.2389105
ROB'S LIQUOR MARKET,127,33.83198299,-118.2210125
RICHARD'S SHELL GAS STATION,128,33.90298057,-118.2159426
ROSECRANS SPIRIT SHOP # 4,129,33.87250328,-118.1104391
RIVAS CANDIES,130,34.671467,-118.150723
RED DRAGON MARKET,131,34.19400999,-118.5189231
RJM VALLEJO MINI MARKET,132,33.90207175,-118.0469978
RAMP WEST MARKET & LIQUOR,133,33.90197111,-118.3714046
ADAMS SQUARE LIQUOR,134,34.13400961,-118.2421356
RICHARD'S LIQUOR,135,33.93719163,-118.2171836
RINGSIDE LIQUOR,136,34.15023905,-118.405239
RITEWAY MARKET,137,33.88841534,-118.2325837
ROSECRANS SPIRIT SHOP,138,33.90196633,-118.0995191
ROSS STORES #229,139,34.15674382,-118.4329358
ROSE MILL MARKET & FLORIST,140,34.01409309,-118.0454343
ROSITA'S NUTRITION CENTER,141,33.88872617,-118.1961746
ROSS DRESS FOR LESS STORE #1285,142,34.04829462,-118.3321098
RODEO'S DISCOUNT,143,34.00852079,-118.2563014
RCC POULTRY,144,33.93452535,-118.254405
RINCONCITO OAXAQUENO MARKET INC,145,34.0472474,-118.2945548
ROCKET FIZZ,146,34.673771,-118.1478456
ROSS DRESS FOR LESS #1993,147,34.105302,-117.9077767
ROOBINA'S CAKE,148,34.15989437,-118.2664365
RASA INDIAN GROCERY,149,33.86121395,-118.0822838
ROSS DRESS FOR LESS #356,150,34.09779916,-118.3435531
ROSS DRESS 4 LESS # 1632,151,34.24628406,-118.4190893
RED TOP MARKET,152,34.17965996,-118.300797
ROCKET OIL CHEVRON #1,153,33.79811782,-118.2754413
ROSEMEAD OIL,154,34.06962613,-118.1000029
ROSECRANS USA MART,155,33.9021632,-118.264955
ROSE MARKET,156,34.17927744,-118.3813679
RIVERAS MEAT MARKET,157,34.05204172,-118.0213678
ROSS DRESS FOR LESS #1558,158,34.03081722,-118.1229791
RITE LIQUOR,159,33.90432758,-118.3610965
RAMIREZ MARKET,160,34.00256604,-118.2391953
ROCKET LIQUOR,161,34.19410078,-118.5358187
RIO PETROLEUM,162,34.03194539,-118.4455081
ROBERTS MARKET,163,33.95971374,-118.3818733
REGGIES LIQUOR & JR MARKET,164,34.01563829,-118.2508149
RODO'S PHONE CARD & DISCOUNT STORE,165,33.73789579,-118.3088711
ROSS DRESS FOR LESS #2019,166,33.91737647,-117.9955325
ROSS LIQUOR,167,34.29882338,-118.4593062
ROSS DRESS FOR LESS #1391,168,34.38653595,-118.5719885
ROSS DRESS FOR LESS #847,169,33.9453453,-118.3323431
RODRIGUEZ MARKET,170,33.9846902,-118.2561953
ROSS DRESS FOR LESS,171,34.07667792,-118.0400736
ROCKY'S LIQUOR AND FOOD MART,172,33.88797709,-118.3267655
REDONDO BEACH 76/7-ELEVEN 3937A,173,33.83927724,-118.3856806
ROMAN'S LIQUOR,174,34.09876984,-118.3445624
READ'S LIQUOR,175,34.06261784,-118.2726692
REMY'S ORIENTAL MARKET,176,34.67596419,-118.1557956
ROSS STORES #227,177,34.21607271,-118.2232407
RED CARPET LIQUOR,178,34.11628853,-117.9057428
RED SUN GIFT INC.,179,33.99497261,-117.9100483
RED TAG DISCOUNT USA,180,33.98137465,-118.2740843
RED LIQUOR AMARKET,181,33.98133558,-118.3219472
ROSECRANS SPIRIT SHOP NO. II,182,33.90216971,-118.1158624
ROCKVIEW DAIRY,183,33.91978755,-118.360935
RICK'S LIQUOR,184,34.04306892,-117.9494824
RODRIGUEZ DISCOUNT,185,34.007904,-118.2652498
RL #2 LIQUOR,186,34.64499599,-118.2181442
ROSS STORES #039,187,34.17273718,-118.5504531
RIVERSIDE VALERO,188,34.11096649,-118.2652141
RICO PEREZ PRODUCTS,189,34.06486407,-117.9279046
RASPUTIN MARKET,190,34.16067529,-118.5073429
REDONDO MARKET,191,34.04100704,-118.3525589
RIGO'S DELI MINI MARKET,192,34.15102578,-118.0095776
RJ'S LIQUOR,193,34.18327148,-118.1503125
RAUL'S MARKET,194,33.93262451,-118.2540346
RODEO MEAT MARKET,195,34.05000506,-117.9974742
RED & GREEN FARMS,196,34.68514236,-118.1478069
ROSECRANS PETROLEUM,197,33.90264429,-118.282899
ROSIE'S DISCOUNT STORE,198,34.04028407,-118.3178754
ROBERT'S MINI MARKET,199,33.99913969,-118.2719718
RIO RANCHO 76,200,34.03280326,-117.7557295
ROSS DRESS FOR LESS #1198,201,33.87747821,-118.2201438
RIVERA LIQUOR,202,33.97024898,-118.1015476
RED SHELL FOODS - GELSONS,203,34.14694442,-118.6125343
ROSS DRESS FOR LESS #382,204,34.2711699,-118.5010874
RILEYS PHARMACY,205,34.15494032,-118.2583426
"RASPADOS ""DON MANVEI""",206,34.03867269,-118.2078788
ROSS STORES # 250,207,33.75181658,-118.308941
ROSS DRESS FOR LESS # 540,208,34.18940841,-118.6235305
RESEDA RANCH SERVICE STATION,209,34.21585124,-118.5358596
ROCKVIEW DAIRY 66,210,33.91628296,-117.9941011
RICKY'S DISCOUNT STORE,211,33.93833043,-118.3613421
ROSS DRESS FOR LESS #1377,212,33.81248583,-118.1808098
RIO HONDO BOOK STORE,213,34.01906463,-118.038421
ROSS STORES #090,214,34.42837622,-118.5360293
RODRIGUEZ MARKET,215,33.96436299,-118.2737047
ROCKET LIQUOR,216,34.19390346,-118.5982795
"RINCON,CHILENO DELI",217,34.0834536,-118.2956785
REGGIE'S LIQUOR,218,33.94589745,-118.253864
RITE ON MARKET,219,33.94664128,-118.2779986
RAY'S LIQUOR & JR MARKET,220,33.9706888,-118.1045353
RICKY'S LIQUOR,221,34.41625504,-118.4568736
REDONDO FOOD MARKET,222,33.8335191,-118.3881705
ALBERTSON'S #108 - MEAT DEPT,223,33.87412127,-118.3080769
ALBERTSON'S #1181 - MAIN MARKET,224,34.03280283,-118.122896
ALBERTSON'S #1181 - MEAT DEPT,225,34.03280283,-118.122896
ALBERTSON'S #1322 - MAIN MARKET,226,34.67361558,-118.1672174
ALBERTSON'S #1322 - MEAT DEPT,227,34.67361558,-118.1672174
ALBERTSON'S #1333 - MAIN MARKET,228,34.58558323,-118.1489988
ALBERTSON'S #1333 - MEAT DEPT.,229,34.58558323,-118.1489988
ALBERTSON'S #1335 - MEAT DEPT,230,34.14479324,-118.6995124
ALBERTSON'S #1335 - MAIN MARKET,231,34.14479324,-118.6995124
ALBERTSON'S #1360 - MEAT DEPT,232,34.44308231,-118.5117912
ALBERTSON'S #1360 - MAIN MARKET,233,34.44308231,-118.5117912
ALBERTSON'S #140 -  MEAT/SEAFOOD,234,33.94526695,-118.1439973
ALBERTSON'S #140 - MAIN MARKET,235,33.94526695,-118.1439973
ALBERTSON'S #148 - MAIN MARKET,236,33.89684222,-118.0068935
ALBERTSON'S #148 - MEAT DEPT,237,33.89684222,-118.0068935
ALBERTSON'S #191 - MAIN MARKET,238,33.84767619,-118.1342673
ALBERTSON'S #191 - MEAT DEPT,239,33.84767619,-118.1342673
ALBERTSON'S #148 - MAIN MARKET,240,34.20850833,-118.5543485
ALBERTSON'S #2305 - MEAT DEPT,241,34.20850833,-118.5543485
ALBERTSON'S #2543 - MAIN MARKET,242,34.08693946,-118.1499581
ALBERTSON'S #2543 - MEAT & SEAFOOD,243,34.08693946,-118.1499581
ALBERTSON'S #2935 -SEAFOOD/MEAT,244,33.83088589,-118.2763575
ALBERTSON'S #2935 - MAIN MARKET,245,33.83088589,-118.2763575
ALBERTSON'S #3157 - MAIN MARKET,246,34.24125659,-118.2675553
ALBERTSON'S #3157 - MEAT DEPT,247,34.24125659,-118.2675553
ALBERTSON'S #3301 - MAIN MARKET,248,34.46251997,-118.5566039
ALBERTSON'S #3301 - MEAT DEPT,249,34.46251997,-118.5566039
ALBERTSON'S #3554 - MAIN MARKET,250,34.00024675,-117.8125221
ALBERTSON'S #3554 -MEAT DEPT,251,34.00024675,-117.8125221
ALBERTSON'S #359 - MEAT DEPT,252,34.23433902,-118.5023779
ALBERTSON'S #359 - MAIN MARKET,253,34.23433902,-118.5023779
ALBERTSON'S #3859 -MEAT DEPT.,254,33.80666187,-118.2727554
ALBERTSON'S #3859 - MAIN MARKET,255,33.80666187,-118.2727554
ALBERTSON'S #387 - MAIN MARKET,256,34.10864717,-118.2875875
ALBERTSON'S #387 - MEAT DEPT,257,34.10864717,-118.2875875
ALBERTSON'S #4131 -  MEAT/FISH,258,34.01429818,-118.3354962
ALBERTSON'S #4131 - MAIN MARKET,259,34.01429818,-118.3354962
ALBERTSON'S #4557 - MAIN MARKET,260,34.07520232,-117.8892927
ALBERTSON'S #4557 - MEAT DEPT,261,34.07520232,-117.8892927
ALBERTSON'S #561 - MAIN MARKET,262,34.10760897,-118.0234686
ALBERTSON'S #561 -  MEAT DEPT,263,34.10760897,-118.0234686
ALBERTSON'S #594 -MEAT DEPT,264,34.10598838,-117.8039408
ALBERTSON'S #594 - MAIN MARKET,265,34.10598838,-117.8039408
ALBERTSON'S #601 - MEAT DEPT,266,34.12973181,-117.8650521
ALBERTSON'S #601 - MAIN MARKET,267,34.12973181,-117.8650521
ALBERTSON'S #699 - MAIN MARKET,268,33.76526194,-118.3108584
ALBERTSON'S #699 - MEAT/SEAFOOD DEPT,269,33.76526194,-118.3108584
RED SHELL FOODS,270,34.05948518,-118.4204493
RED SHELL FOODS-GELSONS,271,34.15730693,-118.4919239
RED SHELL FOODS-GELSONS,272,34.17009427,-118.5357983
RIOS MINI MARKET,273,33.95373054,-118.2913705
RED RIBBON BAKESHOP,274,34.07181078,-118.2914516
RESEDA PETRROL INC.,275,34.19414437,-118.5362482
RED SHELL FOODS,276,34.0480641,-118.5279451
ROCKY LIQUOR & MART,277,34.08705231,-117.9439389
ROSS STORES #040,278,33.85157066,-118.3525267
ROCKVIEW DAIRY #36,279,33.93178016,-117.9921323
RED GINSENG HOUSE,280,34.05753646,-118.3070942
RANGE AT CITRUS,281,34.10656395,-117.7345271
ROBERT LIQUOR STORE,282,33.86197683,-118.4002384
ROSS DRESS FOR LESS,283,34.57488348,-118.0451796
RAY'S LIQUOR,284,33.91523643,-118.3005671
ROE-ZEE MARKET INC,285,34.25609781,-118.2998765
ROSECRANS SPIRIT SHOP 5,286,33.8988605,-118.0826994
RONNYS LIQUOR,287,34.04798206,-118.5445668
ROSINA'S MARKET,288,33.92219784,-118.1866714
RCGMINIMARKET,289,34.04830333,-118.3303649
REYES ADOBE LIQUOR AND WINE,290,34.14815993,-118.7821701
ROSS DRESS FOR LESS #469,291,34.13405175,-117.9864673
RESEDA MOBIL,292,34.18639093,-118.5530446
ROSCOE FUEL STATION,293,34.22103385,-118.5019491
ROSS DRESS FOR LESS #1364,294,33.81006434,-118.2909918
RON ROSE OIL,295,34.07424046,-117.9461849
RIMON'S SHELL,296,34.01067112,-118.2920501
RANCHO MARKET,297,34.16998896,-118.3118248
RED OWL LIQUOR,298,33.96578804,-118.1866324
RED SHELL FOODS,299,34.10541963,-118.3176872
ROMAN'S MARKET,300,34.27077777,-118.4227088
RIBBONCRAFT,301,34.17010087,-118.2286271
RHEE'S LIQUOR MARKET,302,33.90160905,-118.3079812
ROSEVAN LIQUOR,303,33.90145987,-118.3175457
ROSS DRESS FOR LESS,304,33.96181598,-118.0307409
REMEDIOS HOLISTICOS,305,34.03674622,-118.1940684
ALONDRA LIQUOR,306,33.88832382,-118.1133974
RIGHTEOUS SPORTS,307,34.66041214,-118.1801146
REY REY MINI MARKET,308,33.96709573,-118.2649594
ALPINE SHELL,309,33.84232468,-118.2871486
RECREATION ROOM SNACK BAR,310,34.13971315,-118.0453042
ROSS DRESS FOR LESS STORE,311,34.05115818,-117.9452033
REYES ROYALTY WATER,312,34.27412148,-118.4118758
"RODRIGUEZ, MINI MARKET",313,34.03106108,-118.2072768
ROSS DRESS FOR LESS #719,314,33.92428395,-118.1320701
ROSIE'S MARKET,315,33.96958743,-118.2872632
RED CARPET CAR WASH,316,34.19329816,-118.605738
RICKS FISH MARKET,317,34.03961022,-118.343126
ROCKY MOUNTAIN CHOCOLATE FAC,318,34.05360916,-118.2523777
ROSS DRESS FOR LESS #835,319,33.972826,-118.2342451
ALTADENA DAIRY DRIVE-IN,320,34.1172552,-118.0041479
REYES MINI MARKET,321,34.01777114,-118.2639172
ROSS DRESS FOR LESS #1991,322,34.02108246,-117.8103397
RICK'S MARKET,323,34.01097977,-118.0893593
ALTADENA SKN GASOLINE,324,34.17804853,-118.1318067
ROSS # 1451,325,34.05590809,-118.4418983
ALVIN'S MINI MARKET,326,33.99607959,-118.2652615
RAOFI FAHEMA,327,34.24830703,-118.4467753
ROBERTITO'S MARKETITA,328,34.00960505,-118.2689094
RED SHELL FOODS,329,33.98669814,-118.4415902
RIO MARKET,330,33.9395031,-118.2740246
ROSS DRESS FOR LESS #38,331,34.07094417,-118.3588271
RAY & ROY'S MARKET,332,34.03811006,-118.2062209
"ELBAUM,NATHAN",333,33.89436875,-118.3957829
ROSE MARKET,334,34.04430857,-118.4546883
ROLLING HILLS MARKET,335,33.78978243,-118.3257208
RICHARD'S MARKET,336,33.93898501,-118.3394224
AMAZON WAREHOUSE,337,34.03307362,-118.4500301
"AMAZON.COM NVDC, INC.",338,34.11840001,-118.2494103
"AMAZON.COM NVDC, INC.",339,33.8940446,-118.3696768
AMBALA CASH AND CARRY,340,33.86465133,-118.0823298
ROSS DRESS FOR LESS,341,33.9917952,-117.9199939
RIO GRANDE MARKET,342,33.9570178,-118.2375755
RANDY'S MINI MARKET,343,33.94302941,-118.2375475
RED SHELL FOODS,344,34.15101403,-118.0526238
ROSS STORES #157,345,33.85953159,-118.1183397
ROSS STORES #107,346,33.99990969,-118.3941981
REDS LIQUOR,347,33.94568064,-118.2962395
ROSITA'S MINI MARKET,348,33.96946578,-118.210042
RIGHTEOUS SPORTS NUTRITION,349,34.58051705,-118.0872134
ROSARITO MARKET,350,33.94159088,-118.282586
ROSCOE CHEVRON - MART,351,34.220376,-118.5975557
REDAC GATEWAY HOTEL - SHOP,352,33.84144015,-118.3101594
ROSS STORES #014,353,33.80899248,-118.3592334
ROSITAS PURA WATER,354,34.57159086,-118.0451722
RIGHT CHOICE CARIBBEAN MARKET,355,34.0072419,-118.3349511
RODEO LIQUOR,356,33.92462575,-118.0215016
RAYMONS GAS STATION,357,34.18327918,-118.3060762
ROSEWOOD LIQUOR,358,33.95917645,-118.1075158
ROCKVIEW DAIRY MARKET,359,34.10950937,-118.1993414
REX LIQUOR,360,33.97062588,-118.2478753
ROCKVIEW FARMS #35,361,33.86648036,-118.3846738
RED SHELL FOODS,362,34.15371479,-118.4484954
RIVERA'S MINI MARKET,363,34.03288491,-118.2123019
RODERO'S LIQUOR,364,34.28967568,-118.4506756
ROCKET FIZZ,365,34.41679569,-118.5604409
ROCKY LIQUOR,366,34.10722919,-117.7355012
RED SHELL FOODS,367,34.10747102,-118.272234
ROCKVIEW DAIRY #29,368,34.05802702,-117.9344021
RED SHELL FOODS,369,34.09030412,-118.3713042
ROSECRANS-SHELL,370,33.90247265,-118.0817159
RIVERTON LIQUOR,371,34.16476856,-118.3661192
RAYMONDS LIQUOR MARKET,372,34.09579725,-118.0996152
RAUL'S MARKET,373,33.9675496,-118.2376212
REDONDO LIQUOR & MARKET,374,33.8727132,-118.3724265
RED TAG DISCOUNT WAREHOUSE,375,33.91534231,-118.2088549
RINCON MEXICANITO,376,33.97258781,-118.1639718
LESS THAN 300 SQ. FT FOOD/NO PHF/OPEN FOOD-DID NOT GO THRU PLAN CK,377,33.9705755,-118.2740752
ROSS DRESS FOR LESS #1830,378,34.01838081,-118.1480353
ROSS DRESS FOR LESS #1659,379,34.07437361,-118.0729151
ROSS DRESS FOR LESS,380,34.07350193,-118.376117
RICHARD SPECKMAN MOBIL MART,381,34.04808275,-118.4444169
ROSS DRESS FOR LESS,382,34.04322435,-118.3766953
ROCKY MINI MARKET,383,33.90764827,-118.3614408
RED SHELL FOOD,384,34.15676336,-118.3962769
ANGELINO NEWS TICKETING,385,33.94282329,-118.4080485
SAN DIMAS CAKE CO.,386,34.10663264,-117.8086698
SAN GABRIEL LIQUOR,387,34.08953989,-118.0906689
SANTA FE SECONDS,388,33.95743395,-118.2247458
S/M TEXACO,389,34.22259865,-118.3596801
S & G MEAT MARKET,390,33.90206783,-118.3031501
ROSS STORES #431,391,34.21496867,-118.447119
SANGAM,392,34.01856554,-117.8095364
ROSS VILLAGE SQUARE #981,393,33.96756412,-118.1631951
SAN DIMAS SERVICE STATION,394,34.10269887,-117.8067071
ROYAL LIQUOR,395,33.79716982,-118.3403525
SAN DIEGO MARKET,396,34.04690741,-118.2757308
SANTA MONICA LIQUOR STORE,397,34.02417951,-118.4926454
ROYCE CHEVRON,398,33.8127355,-118.2978479
SAM'S CLUB #4824,399,34.41629377,-118.5030732
SAMY'S 99 CENT'S STORE,400,33.97319951,-118.2564643
ROYAL INDIA SPICELAND,401,34.20252008,-118.4661657
SAN LUIS MARKET,402,33.95650589,-118.200012
S & P MARKET,403,33.96309031,-118.2826862
SAN PEDRO MARKET,404,34.03635755,-118.2513099
SEAFOOD CITY-MEAT,405,34.22033149,-118.4326885
SAM'S CLUB (MARKET),406,34.09339812,-118.0284357
SALUD FAMILIAR,407,33.95255764,-118.3670859
SAMOSA HOUSE MKT,408,34.00086844,-118.4159952
SAN TUNG LUK INC,409,34.06232153,-118.1332263
RUTH 99 CENTS PLUS,410,34.0203838,-117.9537006
SAN GABRIEL 76,411,34.07459341,-118.0998803
SAN GABRIEL SHELL,412,34.07546751,-118.0910096
SAMY'S LIQUOR,413,33.9417044,-118.029659
ROSS STORES #269,414,33.89944588,-118.3679461
SAN PEDRO DISCOUNT MARKET,415,33.92509356,-118.269379
SATELLITE MARKET,416,33.90829295,-118.2164669
SAM'S MARKET,417,33.78514479,-118.2503866
SANTA CLARITA SHELL,418,34.36804546,-118.5093525
SAN GABRIEL SUPERSTORE,419,34.07889756,-118.0920281
SANTA MONICA'S BLUE MARKET,420,34.01810818,-118.4724012
ROSS STORES #247,421,33.97746508,-118.3727025
SADDLEBACK MARKET,422,34.61662526,-117.825898
SANTA PALM CARWASH,423,34.08643826,-118.3824562
SAM'S MINI MARKET,424,34.58279637,-118.1362271
S & J LIQUOR,425,34.09302949,-118.2249106
"S.R. STAN'S LIQUOR, INC",426,34.25939579,-118.3031926
SAL'S LIQUOR,427,34.21673334,-118.3705333
SANCHEZ MEAT MARKET,428,33.99428636,-118.4172256
PRES CHARLES N HUGGINS,429,34.15712637,-118.4379154
RUIZENOR,430,34.02896072,-118.148558
S&J DISCOUNT PHARMACY,431,34.22340304,-118.5361133
SAN DIMAS SHELL,432,34.10616888,-117.8188678
SAL'S PRODUCE MARKET,433,34.01910554,-118.1833819
SALVA MARKET,434,34.04446047,-118.2135068
S-MART-MARKET,435,33.83705036,-118.3294581
SAM'S CLUB #6240,436,34.11515936,-117.8332246
AR OIL,437,34.15015628,-118.3787981
SAMS CLUB STORE 4767,438,34.60816091,-118.1476129
RST POULTRY,439,34.00949124,-117.959703
SAINT GEORGE MINI MARKET,440,33.9020655,-118.3270007
SEAN'S LIQUOR,441,34.04869643,-118.2771977
ROSS DRESS FOR LESS,442,34.11604837,-117.773645
RUBY'S MARKET,443,34.08801455,-118.016018
SAM'S CLUB MEAT DEPT,444,34.2935148,-118.4173758
SEAFOOD CITY(MEAT & SEAFOOD),445,34.14266526,-118.2243315
SAM'S MARKET,446,33.79552173,-118.2909781
SEARS ROEBUCK CO,447,34.60185835,-118.1528176
SAVOR THE FLAVOR,448,34.16227536,-118.0529141
ROY'S MARKET,449,33.98356223,-118.2741044
SDV LIQUOR INC.,450,34.25971748,-118.3138596
SANTOYO'S SNACK BAR,451,34.05472118,-118.246431
ROYAL LIQUOR GROCERY,452,33.91046856,-118.142686
SAM'S CAR WASJ,453,34.06921714,-118.2765738
SCOTT'S DRIVE IN DAIRY,454,34.03404516,-117.7332903
ROYAL KIDS CALIFORNIA,455,33.95285005,-118.1640214
SCHEFFLES LIQUOR STORE,456,33.74185827,-118.2921157
ARCO,457,34.02169807,-118.8090482
ARCO  #83627,458,34.69692151,-118.1477339
SAM'S CLUB #6617 (MEAT DEPT),459,33.87310056,-118.2986925
ROSS DRESS FOR LESS #1339,460,33.8865996,-118.1598873
SEAFOOD RANCH MARKET,461,34.11949835,-118.2279869
SAM'S CLUB (MEAT DEPT),462,34.09339812,-118.0284357
S & P LIQUOR,463,33.91398055,-118.3439222
ARCO AM-PM MINI MARKET#82167,464,34.13319307,-117.933061
ARCO AM/PM,465,34.05205555,-118.0636738
ARCO AM/PM,466,33.9950633,-118.0707585
ARCO AM/PM,467,34.13917731,-117.985974
SAVOY LIQUOR,468,34.05784556,-118.299956
SASOUN PRODUCE,469,34.09066653,-118.3010039
SAM'S LIQUOR,470,34.15888002,-118.3708045
ROCKY'S LIQUORS,471,34.1472038,-118.0686931
RUBI S MARKET,472,34.00203967,-118.2653179
SAM'S CHEVRON,473,34.03292076,-118.3504299
"SANTA MONICA GENERAL STORE, INC.",474,34.02523709,-118.4695729
ARCO MARINE,475,33.89461288,-118.3616989
ROSS STORES #465,476,33.99344547,-117.9314165
SANTA MONICA CHEVRON,477,34.02373304,-118.4856984
ARCO MINI MART,478,33.97077307,-118.3087865
SAMS CLUB #4767 (MEAT),479,34.60816091,-118.1476129
ARCO NATASHA OIL,480,33.95379507,-118.042781
SAN'S LIQUOR,481,33.96657602,-118.3180393
SALUD + VIDA,482,33.97472351,-118.2501492
SAND CANYON CHEVRON,483,34.42654538,-118.4233349
ROYALTY MARKET,484,33.98315799,-118.2694192
SAI FONG GINSENG AND HERBS,485,34.07942036,-118.0978751
SAM'S LIQUOR STORE,486,34.06244532,-118.0580853
SAVER LIQUOR,487,34.07627956,-118.29436
ROYAL HILLS PHARMACY,488,34.20261622,-118.6296259
SCV FOOD PANTRY,489,34.37649384,-118.5252505
SAM'S LIQUOR,490,34.00869511,-118.103132
RUBY'S LIQUOR,491,33.83502846,-118.3852217
SALGADOS PRODUCE,492,34.07081008,-118.1759636
S & L DRIED SEAFOOD,493,34.08079145,-118.0752021
SAWA MART,494,34.04527733,-118.3508315
SEAFOOD CITY MARKET - MEAT & SEAFOOD DEPT.,495,33.83189943,-118.2795656
SEE'S CANDIES,496,34.1285945,-117.829964
SCOTTY'S LIQUOR,497,33.91089308,-118.2164084
ROWLAND HEIGHTS LIQUOR,498,33.9757783,-117.9096568
SEAFOOD CITY SUPERMARKET,499,33.87464342,-118.071158
SANTOS JR 98  & UP,500,33.97061141,-118.1921262
SAINSBURY MARKET,501,34.04315113,-118.4683503
SCHWARTZ BAKERY,502,34.07633146,-118.3447676
SADDLEBACK MEAT DEPARTMENT,503,34.61662526,-117.825898
ROYAL MARKETPLACE - MEAT MARKET,504,34.20121833,-118.4118475
SARA'S NUTRITION CENTER,505,33.89588038,-118.21807
SAN CARLO ITALIAN IMPORTS,506,34.25538943,-118.5796413
SAN ANTONIO WINERY,507,34.06375028,-118.2238261
ROY'S LIQUOR,508,34.16820446,-118.29075
SEAFOOD CITY MARKET - RETAIL,509,33.83189943,-118.2795656
ROYAL OAKS LIQUOR,510,34.14581677,-118.0286591
S&S MARKET,511,33.95312176,-118.2417261
SEAFOOD MARKET,512,34.09113119,-118.2916958
SAKI'S LIQUOR,513,34.02546373,-118.3318041
RUBEN'S MEXICAN FOOD & DELI,514,33.91707576,-118.2179002
SAN PEDRO CHEVRON,515,33.75403722,-118.2924722
SANTA MONICA GROCERY & MEAT,516,34.09101056,-118.2900269
SAMAYA FRESH,517,33.91045916,-118.3306593
SAM'S COUNTRY MARKET,518,34.24722977,-118.3579991
SAM'S LIQUOR MARKET,519,33.99190961,-118.2250487
RUIZ MINI MARKET,520,33.99941987,-118.2650479
SECOYA MARKET,521,34.05391336,-117.7754961
SEDONA FARMS,522,34.04009069,-118.4641339
SAM'S CLUB #6617,523,33.87310056,-118.2986925
SAN JOSE MARKET,524,34.08607157,-118.2245508
SAROJ MALHI AM/PM ARCO,525,34.25731954,-118.502698
SAV-ON VARIETY STORE,526,34.07155323,-118.3093044
SAL'S LIQUOR,527,34.20768942,-118.3963336
SAIGON MARKET,528,33.8883713,-118.3527597
SALOS MINI MARKET,529,34.00683903,-118.2522644
SAKS FIFTH AVE./GOURMET SHOP,530,34.06672282,-118.4037203
S.K. LIQUOR,531,33.91279621,-118.3614734
SANTA MONICA HOMEOPATHIC RX,532,34.01695935,-118.4915303
S K LIQUOR MARKET,533,33.87779461,-118.3520521
ROY'S LIQUOR,534,33.98776387,-118.202316
ATLANTIC CHEVRON,535,33.92101393,-118.1879433
SAN ANTONIO SPIRIT SHOP,536,33.90578051,-118.0785774
SAWTELLE-76,537,34.0465261,-118.4488959
SAN JUAN MARKET,538,34.06571401,-118.2538503
MEAT DEPT,539,34.0315808,-117.9130515
S & M NUTRITION,540,33.9181877,-118.2098337
S MART,541,33.99900041,-118.2740123
SEAFOOD RANCH MARKET,542,33.8246504,-118.2754228
SAM'S MINI MARKET,543,34.25013423,-118.5891884
SATICOY LIQUOR,544,34.20858847,-118.3796513
SANDY'S LIQOUR,545,33.83134949,-118.2815869
SARA'S MINI MARKET,546,33.96279663,-118.1620337
SEAFOOD CITY SEAFOOD DEPT,547,34.23547345,-118.4842875
SAN MARCOS TORTILLERIA,548,34.04614117,-118.2163983
SAMMY'S MINI MARKET,549,33.99362088,-118.287267
ROYS MARKET,550,34.70395947,-118.1564823
SAM'S CLUB #4824FMR,551,34.41629377,-118.5030732
SEE'S CANDIES,552,34.06980561,-117.9277536
S D LIQUOR AND MARKET,553,33.92330379,-118.0279785
SEAFOOD CITY,554,34.14266526,-118.2243315
SAN ANDRES MARKET,555,34.04751527,-118.2770426
SC 99C MARKET,556,34.01917127,-118.2679953
SAN JUDAS MINI MARKET,557,33.93969153,-118.214213
SEA OCEAN SEAFOOD MARKET,558,34.08706011,-117.9441299
SAM'S CLUB #6626-MEAT DEPT,559,33.94899627,-118.162223
AVALON LIQUORS,560,33.34323033,-118.3251807
SANTA ANITA WINE & SPIRITS,561,34.15019965,-118.031445
SEASON'S PRODUCE,562,34.06263756,-118.0432051
ROSSO WINE SHOP,563,34.20181785,-118.2275687
SANGROKSOO FOOD INC.,564,34.05431671,-118.3215018
SAMHS SERVICE,565,34.05984537,-118.1727599
SAM'S MARKET,566,34.00892027,-118.2872621
SAN PEDRO STORE,567,33.97763826,-118.269406
SC FUELS,568,33.97910275,-118.119016
SAMMY'S LIQUOR L MARKET,569,34.02573601,-118.3269379
SEAFOOD CITY SUPERMARKET,570,33.87464342,-118.071158
S AND H LIQUOR,571,33.95985658,-118.3254927
ROSWOOD LIQUOR,572,34.22182467,-118.4332035
SANTANA MARKET,573,33.96898707,-118.2737384
ROYAL #5,574,34.03252269,-118.3009787
SAM'S NUTRITION CENTER,575,34.06273912,-118.1226629
SAN GABRIEL SERVICES STATION,576,34.10312405,-118.0913429
SAN ANDRES MARKET AND DELI,577,33.99227418,-118.265026
SAN MIGUEL MINI MARKET,578,34.2013613,-118.3727275
SANTA ROSA BASEBALL /SOFTBALL  LEAGUE,579,34.28548391,-118.4491402
AZUSA ARCO,580,34.07578203,-117.9073212
SAN PEDRO AM/PM,581,33.75363986,-118.2929438
SAMY 99 CENT'S STORE,582,33.97320572,-118.2566041
SALUD VIDA Y ESPERANZA,583,34.27837027,-118.4356079
AZUSA PACIFIC UNIVERSITY - PAWS N GO,584,34.12886059,-117.8874354
SATICOY MARKET,585,34.20837693,-118.4225368
AZUSA AUTO SPA,586,34.13349368,-117.9154091
S & S LIQUOR,587,33.88343059,-118.3530176
SAVE MART,588,34.1258372,-118.1865209
B & K MARKET,589,33.88889653,-118.1225668
SAN PEDRO MINI MART,590,34.00806508,-118.270123
ROSS STORES #323,591,34.02656839,-118.4282569
S & B MARKET LIQUOR,592,34.20813814,-118.5695525
B B B MARKET,593,33.96655389,-118.1480554
SALUD Y ALEGRIA,594,34.26494132,-118.4022851
SALT LAKE MARKET,595,33.9692095,-118.2006844
SEAFOOD CITY NORTH HILLS,596,34.23547345,-118.4842875
ROY'S MARKET AND WINES,597,34.27063775,-118.4271508
B&A MARKET,598,34.04268541,-118.2813014
SAUGUS DRUGS,599,34.44315346,-118.5115899
B&H LIQUOR,600,33.88799125,-118.1018938
ROYAL GOURMET DELI,601,34.09109114,-118.366648
RUKSA LIQUOR MART,602,34.04080741,-118.3250027
SAGARADO CORAZON MARKET,603,33.95395827,-118.2033712
SAMARITAN  MEDICAL TOWER PHARMACY,604,34.05268606,-118.264068
ROSS STORES 211,605,34.07368372,-117.8860774
ROWLAND HEIGHTS MOBIL,606,33.98756779,-117.8894148
SECOYA MARKET,607,34.05391336,-117.7754961
SAN GABRIEL SUPERSTORE/MEAT,608,34.07889756,-118.0920281
SAMIR'S GIFT AND GROCERY,609,34.20818308,-118.5748975
SAGRADO CORAZON-BOTANICA,610,34.04544282,-118.2050809
S&S PLAZA LIQUOR MARKET,611,34.49036431,-118.1625757
ROYALE GROCERY & DELI,612,34.10215704,-118.3105498
ROYAL LIQUOR MARKET,613,34.03229718,-118.3624309
ROY'S LIQUORS,614,34.1913271,-118.3247474
SANTA MONICA SHELL,615,34.04472785,-118.4533493
S AND S LIQUOR AND JR MARKET,616,34.09050435,-118.3554818
ROYAL LIQUOR,617,34.1725298,-118.361391
BACCHUS WINE MADE SIMPLE,618,33.88361771,-118.4098803
SANTA MONICA 99 CENTS AND UP,619,34.04490591,-118.4529585
SAM'S CLUB #6628-MEAT DEPT,620,33.80468344,-118.33159
SEE'S CANDIES,621,34.67486311,-118.1507
ROSS STORES #311,622,33.99802174,-118.4605649
RUTHIES GROCERY MARKET,623,33.9867185,-118.1797977
ROYAL LIQUORS,624,34.07643624,-118.2163891
SECO MINI MARKET,625,34.46074704,-118.5342761
S-MART- MEAT DEPT,626,33.83705036,-118.3294581
BAHIA FISH MARKET,627,33.98307572,-118.1862418
S & M NUTRITION,628,33.96344347,-118.1654324
ROYAL MARKET,629,34.2086192,-118.3973195
RUDY'S MEXICAN CANDY,630,34.0569401,-118.2384321
SALVYMEX DISTRIBUTORS,631,34.0348369,-118.2477614
SANDUNE LIQUOR,632,33.95997325,-118.447347
RUSSEL'S CONVENIENCE #702,633,34.05307185,-118.2529814
ROYAL LIQUOR,634,34.07577046,-118.2555511
S & A $1.00 STORE,635,33.9017812,-118.292794
SAN MIGUEL MEAT MARKET,636,34.01883078,-118.193582
SAN ISIDRO PRODUCE,637,34.05580458,-118.0169458
ROSS STORES #158,638,34.67386369,-118.1542498
ROSS STORES #376,639,34.10653148,-117.822696
SANTA FE 76 ENERGY,640,33.94694456,-118.0843275
SANTA BARBARA MINI MARKET,641,33.99718523,-118.2478091
SAM MUSHMELL,642,34.18475274,-118.3593381
SEAFOOD CITY,643,34.22033149,-118.4326885
SAMIS 8 MARKET & LIQUOR,644,33.90241063,-118.0287285
SALUD PARA TODOS,645,33.96707789,-118.1874636
SAN FERNANDO 76,646,34.2984048,-118.4201368
RTM LAKEWOOD INC,647,33.85802238,-118.1174848
S K DISCOUNT MARKET,648,34.07229628,-118.2918706
SAM'S CLUB #6626-ROTISSERIE,649,33.94899627,-118.162223
SAVON PETROLEUM,650,34.11827062,-117.9079915
SAVING LAND PRODUCE,651,34.68953603,-118.1545365
RUSSELLHS CONVENIENCE #712,652,34.05153095,-118.2562318
RUZANNA'S FLOWERS & DESIGN CHOCOLATE MKT,653,34.19380069,-118.4144522
ROYAL LIQUOR MARKET,654,33.96267538,-118.1476044
ROSS STORES #313,655,34.18265292,-118.3117341
SAVEMAX 99 CENTS STORE,656,33.91822039,-118.188813
SAPERSTEIN MIDDLE SCHOOL -MIDDLE MART,657,34.12921813,-118.479528
SAN'S LIQUOR & MARKET,658,34.1940476,-118.4755514
ROSS STORES #450,659,34.04629678,-118.4650519
SANTA FE OUTLETS,660,34.06247911,-117.733349
S & K LIQUOR,661,33.89362102,-118.3434138
SANTA MONICA FARMS JR,662,34.00698625,-118.4882311
ROY'S LIQUOR,663,34.17229783,-118.4045128
ROWAN FOOD MARKET,664,34.02941269,-118.1875315
SEE'S CANDIES,665,33.97898687,-118.4392785
SANTA FE SECONDS,666,33.77821331,-118.2624698
SANTOYO'S SNACK BAR,667,34.05586406,-118.2484091
ROSS STORES #486,668,34.59520594,-118.1475863
ROYAL MARKETPLACE,669,34.20121833,-118.4118475
S-MART- FISH DEPT,670,33.83705036,-118.3294581
SEE'S CANDIES,671,33.86126059,-118.0935757
SANTA FE MOTOR FUELS,672,33.94084872,-118.0468086
ROYAL DELI MARKET,673,34.04755654,-118.2534954
ROYAL LIQUOR & WINE,674,33.91732129,-117.9933176
SCV VITAMINS,675,34.39161251,-118.5738191
SAN DIMAS LIQUOR,676,34.10680294,-117.8356705
RUSH ST. LIQUOR,677,34.05216601,-118.0543919
SAY CHEESE,678,34.10812067,-118.2716226
SAMHAM ASSOCIATES,679,34.01603995,-118.1583565
SCARLETT DISCOUNT MINI STORE,680,34.04207504,-118.2061515
SAN BUENA MARKET,681,33.98196475,-118.3119927
SAM'S CLUB #6625,682,34.2935148,-118.4173758
SEAPORT LIQUOR & MART,683,33.75416024,-118.2922366
ROSS STORES #414,684,34.02734645,-118.3924112
SEAFOOD PARADISE,685,34.06301829,-118.0735788
BARGAIN SALES,686,34.49316897,-118.1986371
S AND K LIQUOR,687,34.22020185,-118.5533402
SEAFOOD CITY MEAT DEPT.,688,34.23547345,-118.4842875
SEAFOOD CITY SUPERMARKET,689,34.0315808,-117.9130515
SAFEWAY LIQUOR,690,34.26465769,-118.5200225
S.H LIQUOR MARKET,691,34.01093088,-118.2652271
BARLEY BIN LIQUORS,692,33.99848651,-118.0558223
SAM'S CLUB #6628 ROTTSSERIE,693,33.80468344,-118.33159
SIEVER LIQUOR,694,34.15054586,-118.4314324
SENKA GIFT SHOP,695,34.04966769,-118.2401099
SMG - MEAT DEPARTMENT,696,34.04508229,-118.4525851
SIMMONS MARKET,697,34.22192058,-118.3735479
SIGNATURE WINES & SPIRITS,698,34.01887816,-118.4563298
SHELL OIL PRODUCTS US 121181,699,34.55851548,-118.0447416
SHELL,700,34.01053847,-117.9633495
SEE'S CANDIES #74,701,33.94552362,-117.9967002
BARRANCA MOBIL,702,34.09110526,-117.8810125
SLAUSON LIQUOR,703,33.98921443,-118.3241985
SHELL CIRCLE K,704,34.10791604,-117.9734049
SLAUSON MINI MART,705,33.98702142,-118.1842303
BASEMENT KITCHEN/DRY STORAGE FAITH & FLOWER,706,34.04619927,-118.2618082
SHERMAN WAY MARKETPLACE,707,34.20102184,-118.4295142
SHELL MINI MART,708,34.03233611,-118.4528717
SHALOM KOSHER MEAT,709,34.16454466,-118.5246697
SEE'S CANDIES #86,710,34.1366884,-118.0540866
SEE'S CANDY,711,34.1537896,-118.6445907
SHORT STOP MINIMARKET,712,34.23537119,-118.4681942
SMILEY'S STOP,713,33.98205545,-118.2386765
SHINE N BRITE,714,33.94326109,-118.3525169
SANTA MONICA OIL,715,34.09079318,-118.3634985
SENKA INTERNATIONAL,716,34.04994892,-118.2417474
SEVEN DAY CHEVON,717,34.1038197,-118.3388828
SHELL ALONDRA,718,33.88724142,-118.1054154
SEE'S CANDIES #LA-49,719,34.4189367,-118.5590971
SELECTA SUPERMARKET,720,34.06882269,-118.3098128
SKIN DEEP NUTRITION,721,34.10658148,-117.8273925
SHANG LEE MARKET,722,34.06261769,-118.1155661
SMOKE VIDEO PLUS,723,34.68947372,-118.1371613
SEE'S CANDIES #44,724,33.93579112,-118.1204418
SANTA MONICA SEAFOOD,725,34.05084842,-118.2607821
SIERRA FOODS INC.,726,33.94568971,-118.216633
SEPULVEDA ARCO,727,33.82547091,-118.3547693
SHERMAN WAY MOBIL,728,34.20095551,-118.4054076
SLAUSON SHELL ETD,729,33.98887637,-118.2298938
SIMPLE SMART GOURMET,730,34.02708053,-118.3898419
SEES CANDY,731,33.98494504,-118.3956038
SILVER SKATE LIQUOR & MART,732,33.80823844,-118.3077243
SHELL FOOD MART,733,34.71838156,-118.1485651
SEPAND INVESTMENT,734,34.12377512,-118.2208485
SEE'S CANDIES #70,735,33.82815521,-118.3519119
SILVER SPUR ARCO,736,33.77690541,-118.37527
SEE'S CANDY,737,34.035814,-118.083172
ATTITUDES,738,34.4306095,-118.6034336
SEVEN DAY MINI MART,739,34.17201129,-118.374328
SEE'S CANDY,740,34.07098144,-118.3563421
SERENDIPITY #124,741,34.06156803,-118.3022586
SHERMAN WAY CEHVRON,742,34.20160999,-118.4048646
SEE'S CANDIES #76,743,33.99344547,-117.9314165
"SLAUSON OIL, INC",744,33.9891633,-118.2778796
SHAWN'S MARKET,745,33.9842563,-118.2653423
SEE'S CANDY,746,34.14352792,-118.2562741
SNACKS ON HARVARD,747,34.06317359,-118.3040778
SHERMAN OAKS UNOCAL,748,34.1582801,-118.4484983
SHELL MINI MART,749,34.05321708,-118.3762256
SEVEN STAR LIQUOR,750,33.91702074,-118.0285545
SHAHKOT MINI MARKETS,751,33.95164968,-118.0290689
SMOKE & MORE,752,33.93865824,-118.3087602
BC SNACK,753,34.03192752,-118.2500073
SHELL TEMPLE CITY,754,34.09889124,-118.0730495
SIERRA & S MOBILE,755,34.55726025,-118.1145212
SNAPPY FOOD MART AND LIQUOR,756,33.9306884,-118.3479202
SHELL FOOD MARKET,757,33.96310095,-118.4218015
SHAAN PAAL,758,34.2341394,-118.3706691
SEAFOOD CITY MARKET,759,34.07181078,-118.2914516
SIETE 7 MARKET,760,33.97917718,-118.1976634
SEOUL MEAT MARKET - MEAT MARKET,761,34.21907869,-118.2305452
SEE'S CANDIES #89,762,34.23920058,-118.5537907
SEES CANDY  84 A,763,34.20633265,-118.2038112
SO CAL SMOKE SHOP,764,34.25747453,-118.4700285
SHAHNAWAZ GROCERIES,765,33.83880883,-118.0714332
SAN DIMAS CHEVRON,766,34.10680384,-117.807414
SIMROY CHEVRON,767,34.27377615,-118.4120466
BEAT BIKE,768,34.17072432,-118.5409196
SHIRAK DELI,769,34.23902459,-118.2638442
SNACK SPOT,770,33.88347083,-118.3042222
SAM'S MARKET & LIQUOR,771,34.57990157,-118.111167
SHEIK'S CHEVRON,772,34.11448014,-118.1811349
SKAZKA,773,34.20140181,-118.5205605
SMOKE FOR LESS,774,34.09107307,-118.3677012
SHEEBA OIL AND SONS,775,33.96026863,-118.2699317
SHALBON CORP.,776,33.9765802,-118.3576522
SIERRA GAS & SCALE,777,34.6795553,-118.1337333
BEETHOVEN MARKET,778,34.00618361,-118.446303
SHELL GAS STATION,779,34.19362006,-118.370332
SHOP N GO MARKET,780,33.927039,-118.3613431
FLAGS,781,34.4306095,-118.6034336
SELAM MARKET,782,34.04927511,-118.3591793
SHELL STORE #68506,783,34.12125052,-117.9075368
SEE'S CANDIES #LA-85,784,34.18443658,-118.6061744
SKY'S GOURMET MARKET PLACE,785,33.98526536,-118.4531587
SCORPIONS 99  STORE AND UP,786,34.00296979,-118.2913231
SEE'S CANDIES - DEPARTURE,787,33.94359568,-118.4083139
SELIN FOOD BAZAAR,788,34.14721558,-118.2643333
SHELL #1,789,34.00643506,-118.1094579
SLG CRENSHAW,790,33.91614511,-118.3261358
SHYREA'S LIQUOR,791,33.94561373,-118.307927
SAMARITANA MINI MARKET,792,33.9626513,-118.2474627
SERVICIOS N & N,793,34.21972015,-118.6005867
SJ CHEVRON,794,34.24224253,-118.5362839
SHANG LEE FRESH POULTRY INC,795,34.06022734,-118.2378635
SEE'S CANDIES,796,34.19397413,-118.5538073
SHELL FOOD MART,797,34.22107203,-118.5027539
SEOUL BAKERY,798,34.05280075,-118.2974248
SAUGUS SUPERETTE,799,34.41198193,-118.5412718
SHELL #299,800,33.97490441,-118.2644339
SAOZEE MARKET,801,34.16157442,-118.5132641
SAM'S CLUB #6240 (MARKET),802,34.11515936,-117.8332246
SEE'S CANDIES #51,803,34.18347834,-118.3122467
SEXY NUTRITION,804,34.09779821,-118.3641595
SK MINI MART,805,34.05046805,-117.9341077
SERVICE LIQUOR STORE,806,34.06917139,-118.2983061
SEVEN STARS JR. MARKET / CHOYE KIM INC.,807,33.95713167,-118.3523069
SERV RITE LIQUOR & MARKET,808,33.96829253,-118.0966992
SHORT STOP #27,809,34.21505857,-118.4489642
SMOKE SHOP,810,34.5796366,-118.0762135
SHORT STOP # 22,811,34.24300023,-118.4502632
SEE'S CANDY,812,33.89551143,-118.3958964
SMART DOLLAR AND UP,813,34.0175921,-118.1578676
SEVEN STAR MINI MARKET,814,34.10602953,-117.8991175
SHAWNS LIQUOR,815,33.884031,-118.2057004
SIPAN MEAT MARKET,816,34.14294875,-118.2352766
SINCLAIR,817,34.07358837,-118.2080947
SHELL FOOD MARKET,818,33.96709276,-118.1581618
SEOUL MEAT MARKET - MAIN MARKET,819,34.21907869,-118.2305452
SMOG PROS ALHAMBRA,820,34.07565237,-118.1603015
SHANGHAI FOOD & GROVERY CO,821,34.08142196,-118.0847719
SHELL GAS STATION,822,34.23497318,-118.5888013
SEE'S CANDY SHOP #LA107,823,34.41555514,-118.4738332
SING LEE POULTRY & SEAFOOD MKT,824,33.93844839,-118.0443012
SHIRAK GROCERY & DELI,825,34.01372229,-118.1261554
SELECT GIFT,826,34.06703644,-118.3898248
SHANGHAI NOBLE FOOD USA INC,827,33.988684,-117.891113
SHORT STOP # 33,828,34.12986043,-118.3489935
SHAMROCK LIQUOR & DELI #2,829,34.57965358,-118.1034527
SEE'S CANDY,830,34.02672538,-118.4900959
SM OIL,831,33.92924536,-118.2507019
SHOUP LIQUOR,832,34.20114928,-118.6137311
SEES CANDY,833,34.07891226,-118.1139221
BETO'S MARKET,834,34.04338743,-118.3078118
SHOP RITE BROTHERS,835,33.96015971,-118.3043323
SAVE TOWN,836,33.89602763,-118.2320673
SHERMAN OAKS 76,837,34.15083332,-118.4483634
,838,34.25730522,-118.4996633
FARM MARKET,839,34.15777438,-118.4403678
SILVANA'S MINI MARKET,840,33.99287971,-118.2741052
SAMTAI TRADING CO.,841,34.07962622,-118.0928059
SILVER GLEN LIQUOR STORE,842,34.10221014,-118.2590181
SANTA FE LIQUOR,843,33.98659091,-118.2298916
SNACKMART,844,34.0306936,-118.2554034
SILVER LIQUOR MARKET,845,34.06675236,-118.2793122
SEE'S CANDY INC,846,34.02150416,-117.9575248
SFV SUPER DOLLAR,847,34.19784093,-118.606085
SNACK SHOP,848,34.15351055,-118.2551423
SMITH PHARMACY,849,34.09104401,-118.3093539
SEE'S CANDY,850,34.06003591,-118.4198835
SHANTA OILS AM PM MINI MKT,851,34.15251959,-118.36694
SHERMAN OAKS 76,852,34.15637921,-118.4488949
SAM'S MARKET,853,33.88139339,-118.2974291
SILVER CHEVRON,854,33.9162141,-118.3614754
SAM'S CLUB #6628,855,33.80468344,-118.33159
SEE'S CANDIES #2107,856,33.82166396,-118.3505242
SLAUSON GAS STATION INC.,857,33.98874388,-118.3579675
BIG 5 SPORTING #66,858,34.20262854,-118.4485351
BIG 5 SPORTING GOOD #120,859,34.07876828,-118.1166318
BIG 5 STORE,860,34.18728289,-118.5555861
BIG 5 SPORTING GOODS,861,33.9717686,-118.2340049
BIG 5 SPORTING GOODS # 15,862,33.85329829,-118.1431111
BIG 5 SPORTING GOODS # 18,863,34.00368681,-118.408695
BIG 5 SPORTING GOODS # 188,864,34.16014518,-118.5039818
BIG 5 SPORTING GOODS #002,865,33.9603049,-118.3523211
BIG 5 SPORTING GOODS #104,866,34.41894578,-118.5591294
BIG 5 SPORTING GOODS #11,867,34.06425202,-118.3713726
BIG 5 SPORTING GOODS #13,868,34.19752305,-118.605667
BIG FIVE SPORTING GOODS #137,869,33.91652159,-118.3761117
BIG 5 SPORTING GOODS #150,870,34.03968848,-118.1427489
BIG 5 SPORTING GOODS #26,871,34.07231965,-118.0239588
BIG FIVE SPORTING GOODS #27,872,33.93403452,-118.121908
BIG 5 SPORTING GOODS #273,873,34.06162644,-118.2984061
BIG 5 SPORTING GOODS #334,874,34.1476747,-118.2574488
BIG 5 SPORTIN GOODS #352,875,34.01891514,-118.3350453
BIG 5 SPORTING GOODS #414,876,34.41556152,-118.4710634
BIG 5 SPORTING GOODS #430,877,33.93183168,-118.3263218
SOCKERBIT,878,34.0714966,-118.3622819
SNACK SHOP,879,34.22869532,-118.467889
SHELL MINIMART,880,34.16087029,-118.3431566
SKY CREW STORE,881,33.85075035,-118.290486
SELAM LIQOUR,882,33.90669758,-118.1933393
SEN BARGAIN,883,33.77979928,-118.2689576
GAS & FOOD MART,884,34.08845666,-118.2867038
SMOKE N MART,885,34.68940653,-118.133974
SNACK SHOP,886,34.04338426,-118.2506793
SIERRA FOODS,887,34.01316391,-117.9234158
SEE'S CANDY SHOP,888,33.95609796,-118.128788
SERATAL,889,34.06907753,-118.294514
SEE'S CANDIES #LA55,890,34.00109323,-117.8125829
SAN PEDRO A S  MARKET,891,34.02117605,-118.261488
SANCHEZ MEAT MARKET,892,34.00828102,-118.271464
SEE'S CANDIES,893,34.02540448,-118.3723356
SIAM MINH KUIK SERVE,894,34.13184867,-118.0097151
SHELL OIL PRODUCTS,895,34.67553773,-118.1117545
SHREE KRISHNA MARKET,896,34.28278959,-118.4476529
SHALOM PRODUCE,897,34.09782492,-118.3479809
SHELL GAS STATION,898,34.09077153,-118.365034
SEVAN GAS STATION,899,34.19188536,-118.3249974
SAM'S MARKET INC.,900,33.88784792,-118.1171866
SNA GENERAL DISCOUNT & MARKET,901,33.94982165,-118.2826792
SHANG HAI ACCUPUNCTURE CLINI,902,33.98341288,-118.225344
BIG ROCK CREEK CAMP,903,34.39591527,-117.806753
SIGNAL HILL MARKET,904,33.79150044,-118.1676259
SHAPE UP LA,905,34.17251286,-118.5593814
SILVERLAKE WINE,906,34.0344366,-118.2324672
SHERMAN OAKS SHELL,907,34.16461603,-118.448898
SHELL- ARMAG PETRO,908,34.1724971,-118.2789332
SHARLEX INC.,909,34.00709737,-117.9124346
SHORT STOP,910,34.04315199,-117.8477091
SMG - FOOD MARKET,911,34.04508229,-118.4525851
SIMPLY THE BEST,912,34.30215806,-118.442707
SERVICE STATION OF THE STARS,913,34.05508002,-118.3951289
SNAPPY FOOD MART & DELI,914,33.93107914,-118.3706549
SKYLINE MARKET,915,34.19383552,-118.3653092
SHELI'S LIQUOR,916,33.95260919,-118.191518
SEVENTH DAY ADVENTIST,917,34.20135495,-118.4514983
SEEBS MARKET PLACE,918,34.02027042,-118.2854618
SIAM GROCERY WAREHOUSE,919,34.5806424,-118.084605
SLK PARAMOUNT SHELL,920,33.88883515,-118.1683503
SHARON'S GOOD EATS,921,34.05496103,-118.2443652
SHELL STATION,922,34.60187762,-118.148935
SARAH'S CARD & SNACK,923,34.05143313,-118.2661835
SHORTY MARKET,924,33.992739,-118.2564294
SKIPPERS LIQUOR STORE,925,34.221625,-118.460083
SEE'S CANDIES #26,926,33.89747928,-118.3949735
SHISHIKYAN STEPHAN,927,34.09828602,-118.3017551
SEVEN SEAS GOURMET FOODS,928,34.15052624,-118.2578762
SARA'S MARKET,929,34.05254056,-118.1888647
SEE'S CANDIES #14,930,34.601868,-118.1508722
SHOW PLACE LIQUOR,931,34.04373326,-118.3215016
SHELL MINI MART,932,34.18683218,-118.4316796
SEE'S CANDIES #LA104,933,34.12006221,-118.1501385
SKI'S LIQUOR,934,33.91679608,-118.0819426
SIMAAN MOBIL FOOD MART,935,33.92925789,-118.1617606
SIMONS MARKET,936,33.99833605,-118.47384
SK DRIVE IN DAIRY,937,34.2081789,-118.5757904
LOONEY TUNES,938,34.4306095,-118.6034336
SHORT STOP #24,939,34.14932446,-118.4310245
SHOP EASY LIQUOR,940,34.24129434,-118.2672419
SEVAN MEAT & FISH MARKET,941,34.14639624,-118.2425809
SHAMROCK LIQUOR,942,34.660013,-118.2114304
SET FOR LIFE LIQUOR,943,33.95263172,-118.3177604
SHIN SUN MEAT,944,34.05643088,-118.309242
SHERMAN OAKS CHEVRON,945,34.1511383,-118.4489849
SIMPLY WHOLESOME,946,33.9886931,-118.3545268
SEVAN MEAT MARKET,947,34.14297205,-118.2369519
SHOP & GO MINI MART,948,34.14656649,-117.908454
SNACK & ANTOJITOS VEGA'S,949,34.1297628,-117.8990392
SEE'S CANDIES #78,950,33.85109771,-118.1400222
SLATER GROVERY STORE,951,33.92922778,-118.2523123
SIXTERN KIM'S MART,952,34.06365434,-118.3085262
SIERRA FOODS THRIFTY GAS,953,33.98936013,-118.2256661
SMG - MARKET,954,34.04508229,-118.4525851
SIMON'S DISCOUNT PHARMACY,955,34.09782856,-118.3485557
M & M IMPORIUM,956,34.4306095,-118.6034336
SIERRA FOODS INC,957,33.94392044,-118.1374501
SHOJI'S MOBIL,958,33.80748895,-118.3583423
SIMONS MINI MARKET,959,33.96190046,-118.364163
SIERRA LIQUOR AND JR MARKET,960,34.42660107,-118.4467143
SHELL FOOD MART,961,34.14256248,-118.7396218
CABAMA BROTHERS,962,34.4306095,-118.6034336
SILOM SUPER MARKET,963,34.10189098,-118.3059676
SOTO'S KIDS NUTRITION,964,34.026338,-118.2196262
